[{"district":"Balaka","coordinates":{"lat":-15.036430710286124,"lng":35.05619110015966}},{"district":"Blantyre","coordinates":{"lat":-15.67006337238369,"lng":34.94534094579674}},{"district":"Chikwawa","coordinates":{"lat":-16.164373959414018,"lng":34.70894575486594}},{"district":"Chiradzulu","coordinates":{"lat":-15.74622018807802,"lng":35.21347217031603}},{"district":"Chitipa","coordinates":{"lat":-9.95158505694109,"lng":33.4863905501079}},{"district":"Dedza","coordinates":{"lat":-14.158033847457055,"lng":34.36644909586413}},{"district":"Dowa","coordinates":{"lat":-13.569285066855931,"lng":33.78736590117752}},{"district":"Karonga","coordinates":{"lat":-10.079709522195202,"lng":34.09101402240226}},{"district":"Kasungu","coordinates":{"lat":-12.984019352034021,"lng":33.38545400463365}},{"district":"Likoma","coordinates":{"lat":-12.060564870815002,"lng":34.71541152650367}},{"district":"Lilongwe","coordinates":{"lat":-14.018402527243039,"lng":33.68433478846372}},{"district":"Machinga","coordinates":{"lat":-14.943467767723387,"lng":35.56794921540459}},{"district":"Mangochi","coordinates":{"lat":-14.262416385070898,"lng":35.137327208808394}},{"district":"Mchinji","coordinates":{"lat":-13.69128930350619,"lng":33.05626654503097}},{"district":"Mulanje","coordinates":{"lat":-15.937301968834872,"lng":35.509364896245046}},{"district":"Mwanza","coordinates":{"lat":-15.665245085532767,"lng":34.51886243588685}},{"district":"Mzimba","coordinates":{"lat":-11.787327307560373,"lng":33.63970419422752}},{"district":"Neno","coordinates":{"lat":-15.459293661981144,"lng":34.695767321678844}},{"district":"Nkhotakota","coordinates":{"lat":-12.811120920164695,"lng":34.2076903885363}},{"district":"Nsanje","coordinates":{"lat":-16.74537383077532,"lng":35.14298855280914}},{"district":"Ntcheu","coordinates":{"lat":-14.810619864914923,"lng":34.714256830180354}},{"district":"Ntchisi","coordinates":{"lat":-13.297744003013975,"lng":33.918414377451725}},{"district":"Phalombe","coordinates":{"lat":-15.667032452019997,"lng":35.6912525837665}},{"district":"Rumphi","coordinates":{"lat":-10.817311763371796,"lng":33.975366220829464}},{"district":"Salima","coordinates":{"lat":-13.70568486832072,"lng":34.43061936181489}},{"district":"Thyolo","coordinates":{"lat":-16.103968012447933,"lng":35.144563177730966}},{"district":"Zomba","coordinates":{"lat":-15.398793800428265,"lng":35.42695315385985}},{"district":"Nkhatabay","coordinates":{"lat":-11.606146752187588,"lng":34.29600435363959}}]